{"courses":
        [
             {"id": "111111",
        "destination": {"lat": 32.070303, "lng": 34.824927, "name": "Haroe 186, Ramat Gan"},
        "source": {"lat": 32.100789, "lng": 34.797525, "name": "Rokach Boulevard, Tel Aviv-Yafo"}},
        {"id": "222222",
        "destination": {"lat": 32.070263, "lng": 34.826165, "name": "Shlomtsiyon St 1 Ramat Gan"},
        "source": {"lat": 32.119228, "lng": 34.809734, "name": "Keren Kayemet Blvd Ramat Aviv"}},
        {"id": "333333",
         "destination": {"lat": 32.061563, "lng": 34.831425, "name": "Arieh Ben Eliezer St 53 Ramat Gan"},
         "source": {"lat": 32.102217, "lng": 34.782093, "name": "Shai Agnon 1, Tel Aviv-Jaffa"}}
        ]
}